[
    {
        "city": "Düsseldorf",
        "lat": 51.22422,
        "lon": 6.780068,
        "forecasts": {
            "today": {
                "temp": 294.0,
                "feeling": "very hot",
                "hazard": "very high",
                "color": "#800080"
            },
            "tomorrow": null,
            "day_after": null
        }
    },
    {
        "city": "Duisburg",
        "lat": 51.433259,
        "lon": 6.765477,
        "forecasts": {
            "today": {
                "temp": 293.3,
                "feeling": "very hot",
                "hazard": "very high",
                "color": "#800080"
            },
            "tomorrow": null,
            "day_after": null
        }
    },
    {
        "city": "Essen",
        "lat": 51.455843,
        "lon": 7.012583,
        "forecasts": {
            "today": {
                "temp": 292.3,
                "feeling": "very hot",
                "hazard": "very high",
                "color": "#800080"
            },
            "tomorrow": null,
            "day_after": null
        }
    },
    {
        "city": "Krefeld",
        "lat": 51.332637,
        "lon": 6.56089,
        "forecasts": {
            "today": {
                "temp": 295.7,
                "feeling": "very hot",
                "hazard": "very high",
                "color": "#800080"
            },
            "tomorrow": null,
            "day_after": null
        }
    },
    {
        "city": "Mönchengladbach",
        "lat": 51.194473,
        "lon": 6.43161,
        "forecasts": {
            "today": {
                "temp": 295.1,
                "feeling": "very hot",
                "hazard": "very high",
                "color": "#800080"
            },
            "tomorrow": null,
            "day_after": null
        }
    },
    {
        "city": "Mülheim an der Ruhr",
        "lat": 51.428107,
        "lon": 6.88505,
        "forecasts": {
            "today": {
                "temp": 293.0,
                "feeling": "very hot",
                "hazard": "very high",
                "color": "#800080"
            },
            "tomorrow": null,
            "day_after": null
        }
    },
    {
        "city": "Oberhausen",
        "lat": 51.470317,
        "lon": 6.852291,
        "forecasts": {
            "today": {
                "temp": 293.3,
                "feeling": "very hot",
                "hazard": "very high",
                "color": "#800080"
            },
            "tomorrow": null,
            "day_after": null
        }
    },
    {
        "city": "Remscheid",
        "lat": 51.179878,
        "lon": 7.194356,
        "forecasts": {
            "today": {
                "temp": 290.6,
                "feeling": "very hot",
                "hazard": "very high",
                "color": "#800080"
            },
            "tomorrow": null,
            "day_after": null
        }
    },
    {
        "city": "Solingen",
        "lat": 51.171718,
        "lon": 7.085665,
        "forecasts": {
            "today": {
                "temp": 291.6,
                "feeling": "very hot",
                "hazard": "very high",
                "color": "#800080"
            },
            "tomorrow": null,
            "day_after": null
        }
    },
    {
        "city": "Wuppertal",
        "lat": 51.271288,
        "lon": 7.195874,
        "forecasts": {
            "today": {
                "temp": 290.6,
                "feeling": "very hot",
                "hazard": "very high",
                "color": "#800080"
            },
            "tomorrow": null,
            "day_after": null
        }
    },
    {
        "city": "Bedburg-Hau",
        "lat": 51.76241,
        "lon": 6.184726,
        "forecasts": {
            "today": {
                "temp": 294.0,
                "feeling": "very hot",
                "hazard": "very high",
                "color": "#800080"
            },
            "tomorrow": null,
            "day_after": null
        }
    },
    {
        "city": "Emmerich am Rhein",
        "lat": 51.831485,
        "lon": 6.242771,
        "forecasts": {
            "today": {
                "temp": 293.3,
                "feeling": "very hot",
                "hazard": "very high",
                "color": "#800080"
            },
            "tomorrow": null,
            "day_after": null
        }
    },
    {
        "city": "Geldern",
        "lat": 51.517533,
        "lon": 6.323569,
        "forecasts": {
            "today": {
                "temp": 295.2,
                "feeling": "very hot",
                "hazard": "very high",
                "color": "#800080"
            },
            "tomorrow": null,
            "day_after": null
        }
    },
    {
        "city": "Goch",
        "lat": 51.674645,
        "lon": 6.158868,
        "forecasts": {
            "today": {
                "temp": 294.6,
                "feeling": "very hot",
                "hazard": "very high",
                "color": "#800080"
            },
            "tomorrow": null,
            "day_after": null
        }
    },
    {
        "city": "Issum",
        "lat": 51.534877,
        "lon": 6.425912,
        "forecasts": {
            "today": {
                "temp": 295.6,
                "feeling": "very hot",
                "hazard": "very high",
                "color": "#800080"
            },
            "tomorrow": null,
            "day_after": null
        }
    },
    {
        "city": "Kalkar",
        "lat": 51.737225,
        "lon": 6.287776,
        "forecasts": {
            "today": {
                "temp": 294.1,
                "feeling": "very hot",
                "hazard": "very high",
                "color": "#800080"
            },
            "tomorrow": null,
            "day_after": null
        }
    },
    {
        "city": "Kerken",
        "lat": 51.45652,
        "lon": 6.374152,
        "forecasts": {
            "today": {
                "temp": 295.6,
                "feeling": "very hot",
                "hazard": "very high",
                "color": "#800080"
            },
            "tomorrow": null,
            "day_after": null
        }
    },
    {
        "city": "Kevelaer",
        "lat": 51.58178,
        "lon": 6.24718,
        "forecasts": {
            "today": {
                "temp": 295.4,
                "feeling": "very hot",
                "hazard": "very high",
                "color": "#800080"
            },
            "tomorrow": null,
            "day_after": null
        }
    },
    {
        "city": "Kleve",
        "lat": 51.787781,
        "lon": 6.138858,
        "forecasts": {
            "today": {
                "temp": 293.0,
                "feeling": "very hot",
                "hazard": "very high",
                "color": "#800080"
            },
            "tomorrow": null,
            "day_after": null
        }
    },
    {
        "city": "Kranenburg",
        "lat": 51.789765,
        "lon": 6.007969,
        "forecasts": {
            "today": {
                "temp": 292.8,
                "feeling": "very hot",
                "hazard": "very high",
                "color": "#800080"
            },
            "tomorrow": null,
            "day_after": null
        }
    },
    {
        "city": "Rees",
        "lat": 51.759506,
        "lon": 6.39621,
        "forecasts": {
            "today": {
                "temp": 294.4,
                "feeling": "very hot",
                "hazard": "very high",
                "color": "#800080"
            },
            "tomorrow": null,
            "day_after": null
        }
    },
    {
        "city": "Rheurdt",
        "lat": 51.466922,
        "lon": 6.469857,
        "forecasts": {
            "today": {
                "temp": 296.1,
                "feeling": "very hot",
                "hazard": "very high",
                "color": "#800080"
            },
            "tomorrow": null,
            "day_after": null
        }
    },
    {
        "city": "Straelen",
        "lat": 51.444776,
        "lon": 6.266608,
        "forecasts": {
            "today": {
                "temp": 295.1,
                "feeling": "very hot",
                "hazard": "very high",
                "color": "#800080"
            },
            "tomorrow": null,
            "day_after": null
        }
    },
    {
        "city": "Uedem",
        "lat": 51.667761,
        "lon": 6.272327,
        "forecasts": {
            "today": {
                "temp": 294.9,
                "feeling": "very hot",
                "hazard": "very high",
                "color": "#800080"
            },
            "tomorrow": null,
            "day_after": null
        }
    },
    {
        "city": "Wachtendonk",
        "lat": 51.408082,
        "lon": 6.343102,
        "forecasts": {
            "today": {
                "temp": 295.0,
                "feeling": "very hot",
                "hazard": "very high",
                "color": "#800080"
            },
            "tomorrow": null,
            "day_after": null
        }
    },
    {
        "city": "Weeze",
        "lat": 51.626753,
        "lon": 6.198205,
        "forecasts": {
            "today": {
                "temp": 294.9,
                "feeling": "very hot",
                "hazard": "very high",
                "color": "#800080"
            },
            "tomorrow": null,
            "day_after": null
        }
    },
    {
        "city": "Erkrath",
        "lat": 51.218566,
        "lon": 6.913114,
        "forecasts": {
            "today": {
                "temp": 293.4,
                "feeling": "very hot",
                "hazard": "very high",
                "color": "#800080"
            },
            "tomorrow": null,
            "day_after": null
        }
    },
    {
        "city": "Haan",
        "lat": 51.192305,
        "lon": 7.010639,
        "forecasts": {
            "today": {
                "temp": 292.3,
                "feeling": "very hot",
                "hazard": "very high",
                "color": "#800080"
            },
            "tomorrow": null,
            "day_after": null
        }
    },
    {
        "city": "Heiligenhaus",
        "lat": 51.326038,
        "lon": 6.966531,
        "forecasts": {
            "today": {
                "temp": 292.4,
                "feeling": "very hot",
                "hazard": "very high",
                "color": "#800080"
            },
            "tomorrow": null,
            "day_after": null
        }
    },
    {
        "city": "Hilden",
        "lat": 51.168245,
        "lon": 6.933705,
        "forecasts": {
            "today": {
                "temp": 293.4,
                "feeling": "very hot",
                "hazard": "very high",
                "color": "#800080"
            },
            "tomorrow": null,
            "day_after": null
        }
    },
    {
        "city": "Langenfeld (Rhld.)",
        "lat": 51.107416,
        "lon": 6.948927,
        "forecasts": {
            "today": {
                "temp": 293.8,
                "feeling": "very hot",
                "hazard": "very high",
                "color": "#800080"
            },
            "tomorrow": null,
            "day_after": null
        }
    },
    {
        "city": "Mettmann",
        "lat": 51.251915,
        "lon": 6.978743,
        "forecasts": {
            "today": {
                "temp": 291.8,
                "feeling": "very hot",
                "hazard": "very high",
                "color": "#800080"
            },
            "tomorrow": null,
            "day_after": null
        }
    },
    {
        "city": "Monheim am Rhein",
        "lat": 51.091865,
        "lon": 6.892497,
        "forecasts": {
            "today": {
                "temp": 294.6,
                "feeling": "very hot",
                "hazard": "very high",
                "color": "#800080"
            },
            "tomorrow": null,
            "day_after": null
        }
    },
    {
        "city": "Ratingen",
        "lat": 51.297037,
        "lon": 6.849646,
        "forecasts": {
            "today": {
                "temp": 292.8,
                "feeling": "very hot",
                "hazard": "very high",
                "color": "#800080"
            },
            "tomorrow": null,
            "day_after": null
        }
    },
    {
        "city": "Velbert",
        "lat": 51.340048,
        "lon": 7.041629,
        "forecasts": {
            "today": {
                "temp": 291.2,
                "feeling": "very hot",
                "hazard": "very high",
                "color": "#800080"
            },
            "tomorrow": null,
            "day_after": null
        }
    },
    {
        "city": "Wülfrath",
        "lat": 51.280989,
        "lon": 7.033183,
        "forecasts": {
            "today": {
                "temp": 291.1,
                "feeling": "very hot",
                "hazard": "very high",
                "color": "#800080"
            },
            "tomorrow": null,
            "day_after": null
        }
    },
    {
        "city": "Dormagen",
        "lat": 51.093432,
        "lon": 6.841963,
        "forecasts": {
            "today": {
                "temp": 294.9,
                "feeling": "very hot",
                "hazard": "very high",
                "color": "#800080"
            },
            "tomorrow": null,
            "day_after": null
        }
    },
    {
        "city": "Grevenbroich",
        "lat": 51.091192,
        "lon": 6.583331,
        "forecasts": {
            "today": {
                "temp": 295.6,
                "feeling": "very hot",
                "hazard": "very high",
                "color": "#800080"
            },
            "tomorrow": null,
            "day_after": null
        }
    },
    {
        "city": "Jüchen",
        "lat": 51.100795,
        "lon": 6.503837,
        "forecasts": {
            "today": {
                "temp": 295.4,
                "feeling": "very hot",
                "hazard": "very high",
                "color": "#800080"
            },
            "tomorrow": null,
            "day_after": null
        }
    },
    {
        "city": "Kaarst",
        "lat": 51.231804,
        "lon": 6.614471,
        "forecasts": {
            "today": {
                "temp": 295.3,
                "feeling": "very hot",
                "hazard": "very high",
                "color": "#800080"
            },
            "tomorrow": null,
            "day_after": null
        }
    },
    {
        "city": "Korschenbroich",
        "lat": 51.190965,
        "lon": 6.515709,
        "forecasts": {
            "today": {
                "temp": 295.6,
                "feeling": "very hot",
                "hazard": "very high",
                "color": "#800080"
            },
            "tomorrow": null,
            "day_after": null
        }
    },
    {
        "city": "Meerbusch",
        "lat": 51.261027,
        "lon": 6.677859,
        "forecasts": {
            "today": {
                "temp": 294.7,
                "feeling": "very hot",
                "hazard": "very high",
                "color": "#800080"
            },
            "tomorrow": null,
            "day_after": null
        }
    },
    {
        "city": "Neuss",
        "lat": 51.198873,
        "lon": 6.691409,
        "forecasts": {
            "today": {
                "temp": 295.2,
                "feeling": "very hot",
                "hazard": "very high",
                "color": "#800080"
            },
            "tomorrow": null,
            "day_after": null
        }
    },
    {
        "city": "Rommerskirchen",
        "lat": 51.034328,
        "lon": 6.688992,
        "forecasts": {
            "today": {
                "temp": 295.4,
                "feeling": "very hot",
                "hazard": "very high",
                "color": "#800080"
            },
            "tomorrow": null,
            "day_after": null
        }
    },
    {
        "city": "Brüggen",
        "lat": 51.242067,
        "lon": 6.185264,
        "forecasts": {
            "today": {
                "temp": 294.7,
                "feeling": "very hot",
                "hazard": "very high",
                "color": "#800080"
            },
            "tomorrow": null,
            "day_after": null
        }
    },
    {
        "city": "Grefrath",
        "lat": 51.336498,
        "lon": 6.342117,
        "forecasts": {
            "today": {
                "temp": 294.9,
                "feeling": "very hot",
                "hazard": "very high",
                "color": "#800080"
            },
            "tomorrow": null,
            "day_after": null
        }
    },
    {
        "city": "Kempen",
        "lat": 51.364493,
        "lon": 6.418755,
        "forecasts": {
            "today": {
                "temp": 296.1,
                "feeling": "very hot",
                "hazard": "very high",
                "color": "#800080"
            },
            "tomorrow": null,
            "day_after": null
        }
    },
    {
        "city": "Nettetal",
        "lat": 51.30812,
        "lon": 6.275553,
        "forecasts": {
            "today": {
                "temp": 295.0,
                "feeling": "very hot",
                "hazard": "very high",
                "color": "#800080"
            },
            "tomorrow": null,
            "day_after": null
        }
    },
    {
        "city": "Niederkrüchten",
        "lat": 51.19862,
        "lon": 6.219216,
        "forecasts": {
            "today": {
                "temp": 294.7,
                "feeling": "very hot",
                "hazard": "very high",
                "color": "#800080"
            },
            "tomorrow": null,
            "day_after": null
        }
    },
    {
        "city": "Schwalmtal",
        "lat": 51.214603,
        "lon": 6.273039,
        "forecasts": {
            "today": {
                "temp": 294.7,
                "feeling": "very hot",
                "hazard": "very high",
                "color": "#800080"
            },
            "tomorrow": null,
            "day_after": null
        }
    },
    {
        "city": "Tönisvorst",
        "lat": 51.320838,
        "lon": 6.492628,
        "forecasts": {
            "today": {
                "temp": 296.0,
                "feeling": "very hot",
                "hazard": "very high",
                "color": "#800080"
            },
            "tomorrow": null,
            "day_after": null
        }
    },
    {
        "city": "Viersen",
        "lat": 51.256856,
        "lon": 6.389226,
        "forecasts": {
            "today": {
                "temp": 295.0,
                "feeling": "very hot",
                "hazard": "very high",
                "color": "#800080"
            },
            "tomorrow": null,
            "day_after": null
        }
    },
    {
        "city": "Willich",
        "lat": 51.262542,
        "lon": 6.550043,
        "forecasts": {
            "today": {
                "temp": 295.8,
                "feeling": "very hot",
                "hazard": "very high",
                "color": "#800080"
            },
            "tomorrow": null,
            "day_after": null
        }
    },
    {
        "city": "Alpen",
        "lat": 51.575134,
        "lon": 6.511241,
        "forecasts": {
            "today": {
                "temp": 295.8,
                "feeling": "very hot",
                "hazard": "very high",
                "color": "#800080"
            },
            "tomorrow": null,
            "day_after": null
        }
    },
    {
        "city": "Dinslaken",
        "lat": 51.562266,
        "lon": 6.734967,
        "forecasts": {
            "today": {
                "temp": 293.4,
                "feeling": "very hot",
                "hazard": "very high",
                "color": "#800080"
            },
            "tomorrow": null,
            "day_after": null
        }
    },
    {
        "city": "Hamminkeln",
        "lat": 51.730832,
        "lon": 6.589158,
        "forecasts": {
            "today": {
                "temp": 294.3,
                "feeling": "very hot",
                "hazard": "very high",
                "color": "#800080"
            },
            "tomorrow": null,
            "day_after": null
        }
    },
    {
        "city": "Hünxe",
        "lat": 51.642308,
        "lon": 6.766381,
        "forecasts": {
            "today": {
                "temp": 293.3,
                "feeling": "very hot",
                "hazard": "very high",
                "color": "#800080"
            },
            "tomorrow": null,
            "day_after": null
        }
    },
    {
        "city": "Kamp-Lintfort",
        "lat": 51.500257,
        "lon": 6.55139,
        "forecasts": {
            "today": {
                "temp": 295.8,
                "feeling": "very hot",
                "hazard": "very high",
                "color": "#800080"
            },
            "tomorrow": null,
            "day_after": null
        }
    },
    {
        "city": "Moers",
        "lat": 51.453559,
        "lon": 6.628027,
        "forecasts": {
            "today": {
                "temp": 295.1,
                "feeling": "very hot",
                "hazard": "very high",
                "color": "#800080"
            },
            "tomorrow": null,
            "day_after": null
        }
    },
    {
        "city": "Neukirchen-Vluyn",
        "lat": 51.447044,
        "lon": 6.573385,
        "forecasts": {
            "today": {
                "temp": 295.8,
                "feeling": "very hot",
                "hazard": "very high",
                "color": "#800080"
            },
            "tomorrow": null,
            "day_after": null
        }
    },
    {
        "city": "Rheinberg",
        "lat": 51.545023,
        "lon": 6.602755,
        "forecasts": {
            "today": {
                "temp": 294.9,
                "feeling": "very hot",
                "hazard": "very high",
                "color": "#800080"
            },
            "tomorrow": null,
            "day_after": null
        }
    },
    {
        "city": "Schermbeck",
        "lat": 51.694332,
        "lon": 6.873731,
        "forecasts": {
            "today": {
                "temp": 292.8,
                "feeling": "very hot",
                "hazard": "very high",
                "color": "#800080"
            },
            "tomorrow": null,
            "day_after": null
        }
    },
    {
        "city": "Sonsbeck",
        "lat": 51.607521,
        "lon": 6.376478,
        "forecasts": {
            "today": {
                "temp": 295.0,
                "feeling": "very hot",
                "hazard": "very high",
                "color": "#800080"
            },
            "tomorrow": null,
            "day_after": null
        }
    },
    {
        "city": "Voerde (Niederrhein)",
        "lat": 51.595566,
        "lon": 6.684946,
        "forecasts": {
            "today": {
                "temp": 293.8,
                "feeling": "very hot",
                "hazard": "very high",
                "color": "#800080"
            },
            "tomorrow": null,
            "day_after": null
        }
    },
    {
        "city": "Wesel",
        "lat": 51.65733,
        "lon": 6.617306,
        "forecasts": {
            "today": {
                "temp": 294.2,
                "feeling": "very hot",
                "hazard": "very high",
                "color": "#800080"
            },
            "tomorrow": null,
            "day_after": null
        }
    },
    {
        "city": "Xanten",
        "lat": 51.662258,
        "lon": 6.453197,
        "forecasts": {
            "today": {
                "temp": 294.8,
                "feeling": "very hot",
                "hazard": "very high",
                "color": "#800080"
            },
            "tomorrow": null,
            "day_after": null
        }
    },
    {
        "city": "Bonn",
        "lat": 50.734245,
        "lon": 7.099187,
        "forecasts": {
            "today": {
                "temp": 295.3,
                "feeling": "very hot",
                "hazard": "very high",
                "color": "#800080"
            },
            "tomorrow": null,
            "day_after": null
        }
    },
    {
        "city": "Köln",
        "lat": 50.938107,
        "lon": 6.957068,
        "forecasts": {
            "today": {
                "temp": 294.5,
                "feeling": "very hot",
                "hazard": "very high",
                "color": "#800080"
            },
            "tomorrow": null,
            "day_after": null
        }
    },
    {
        "city": "Leverkusen",
        "lat": 51.03245,
        "lon": 6.979767,
        "forecasts": {
            "today": {
                "temp": 294.0,
                "feeling": "very hot",
                "hazard": "very high",
                "color": "#800080"
            },
            "tomorrow": null,
            "day_after": null
        }
    },
    {
        "city": "Aachen",
        "lat": 50.773516,
        "lon": 6.0848,
        "forecasts": {
            "today": {
                "temp": 293.4,
                "feeling": "very hot",
                "hazard": "very high",
                "color": "#800080"
            },
            "tomorrow": null,
            "day_after": null
        }
    },
    {
        "city": "Alsdorf",
        "lat": 50.874052,
        "lon": 6.161607,
        "forecasts": {
            "today": {
                "temp": 294.7,
                "feeling": "very hot",
                "hazard": "very high",
                "color": "#800080"
            },
            "tomorrow": null,
            "day_after": null
        }
    },
    {
        "city": "Baesweiler",
        "lat": 50.906664,
        "lon": 6.181166,
        "forecasts": {
            "today": {
                "temp": 294.9,
                "feeling": "very hot",
                "hazard": "very high",
                "color": "#800080"
            },
            "tomorrow": null,
            "day_after": null
        }
    },
    {
        "city": "Eschweiler",
        "lat": 50.817431,
        "lon": 6.266781,
        "forecasts": {
            "today": {
                "temp": 294.1,
                "feeling": "very hot",
                "hazard": "very high",
                "color": "#800080"
            },
            "tomorrow": null,
            "day_after": null
        }
    },
    {
        "city": "Herzogenrath",
        "lat": 50.865711,
        "lon": 6.089184,
        "forecasts": {
            "today": {
                "temp": 294.6,
                "feeling": "very hot",
                "hazard": "very high",
                "color": "#800080"
            },
            "tomorrow": null,
            "day_after": null
        }
    },
    {
        "city": "Monschau",
        "lat": 50.555279,
        "lon": 6.239288,
        "forecasts": {
            "today": {
                "temp": 290.4,
                "feeling": "very hot",
                "hazard": "very high",
                "color": "#800080"
            },
            "tomorrow": null,
            "day_after": null
        }
    },
    {
        "city": "Roetgen",
        "lat": 50.648577,
        "lon": 6.196427,
        "forecasts": {
            "today": {
                "temp": 290.5,
                "feeling": "very hot",
                "hazard": "very high",
                "color": "#800080"
            },
            "tomorrow": null,
            "day_after": null
        }
    },
    {
        "city": "Simmerath",
        "lat": 50.606333,
        "lon": 6.30057,
        "forecasts": {
            "today": {
                "temp": 291.2,
                "feeling": "very hot",
                "hazard": "very high",
                "color": "#800080"
            },
            "tomorrow": null,
            "day_after": null
        }
    },
    {
        "city": "Stolberg (Rhld.)",
        "lat": 50.771724,
        "lon": 6.227418,
        "forecasts": {
            "today": {
                "temp": 293.1,
                "feeling": "very hot",
                "hazard": "very high",
                "color": "#800080"
            },
            "tomorrow": null,
            "day_after": null
        }
    },
    {
        "city": "Würselen",
        "lat": 50.821466,
        "lon": 6.13022,
        "forecasts": {
            "today": {
                "temp": 294.2,
                "feeling": "very hot",
                "hazard": "very high",
                "color": "#800080"
            },
            "tomorrow": null,
            "day_after": null
        }
    },
    {
        "city": "Aldenhoven",
        "lat": 50.895696,
        "lon": 6.281953,
        "forecasts": {
            "today": {
                "temp": 295.0,
                "feeling": "very hot",
                "hazard": "very high",
                "color": "#800080"
            },
            "tomorrow": null,
            "day_after": null
        }
    },
    {
        "city": "Düren",
        "lat": 50.801678,
        "lon": 6.482964,
        "forecasts": {
            "today": {
                "temp": 294.4,
                "feeling": "very hot",
                "hazard": "very high",
                "color": "#800080"
            },
            "tomorrow": null,
            "day_after": null
        }
    },
    {
        "city": "Heimbach",
        "lat": 50.633398,
        "lon": 6.480769,
        "forecasts": {
            "today": {
                "temp": 293.2,
                "feeling": "very hot",
                "hazard": "very high",
                "color": "#800080"
            },
            "tomorrow": null,
            "day_after": null
        }
    },
    {
        "city": "Hürtgenwald",
        "lat": 50.723394,
        "lon": 6.392832,
        "forecasts": {
            "today": {
                "temp": 292.3,
                "feeling": "very hot",
                "hazard": "very high",
                "color": "#800080"
            },
            "tomorrow": null,
            "day_after": null
        }
    },
    {
        "city": "Inden",
        "lat": 50.846506,
        "lon": 6.358038,
        "forecasts": {
            "today": {
                "temp": 294.8,
                "feeling": "very hot",
                "hazard": "very high",
                "color": "#800080"
            },
            "tomorrow": null,
            "day_after": null
        }
    },
    {
        "city": "Jülich",
        "lat": 50.922697,
        "lon": 6.357721,
        "forecasts": {
            "today": {
                "temp": 294.9,
                "feeling": "very hot",
                "hazard": "very high",
                "color": "#800080"
            },
            "tomorrow": null,
            "day_after": null
        }
    },
    {
        "city": "Kreuzau",
        "lat": 50.74596,
        "lon": 6.489241,
        "forecasts": {
            "today": {
                "temp": 293.2,
                "feeling": "very hot",
                "hazard": "very high",
                "color": "#800080"
            },
            "tomorrow": null,
            "day_after": null
        }
    },
    {
        "city": "Langerwehe",
        "lat": 50.818168,
        "lon": 6.360112,
        "forecasts": {
            "today": {
                "temp": 294.2,
                "feeling": "very hot",
                "hazard": "very high",
                "color": "#800080"
            },
            "tomorrow": null,
            "day_after": null
        }
    },
    {
        "city": "Linnich",
        "lat": 50.978896,
        "lon": 6.267275,
        "forecasts": {
            "today": {
                "temp": 294.4,
                "feeling": "very hot",
                "hazard": "very high",
                "color": "#800080"
            },
            "tomorrow": null,
            "day_after": null
        }
    },
    {
        "city": "Merzenich",
        "lat": 50.828594,
        "lon": 6.524672,
        "forecasts": {
            "today": {
                "temp": 294.4,
                "feeling": "very hot",
                "hazard": "very high",
                "color": "#800080"
            },
            "tomorrow": null,
            "day_after": null
        }
    },
    {
        "city": "Nideggen",
        "lat": 50.69097,
        "lon": 6.485187,
        "forecasts": {
            "today": {
                "temp": 291.9,
                "feeling": "very hot",
                "hazard": "very high",
                "color": "#800080"
            },
            "tomorrow": null,
            "day_after": null
        }
    },
    {
        "city": "Niederzier",
        "lat": 50.886425,
        "lon": 6.462259,
        "forecasts": {
            "today": {
                "temp": 294.9,
                "feeling": "very hot",
                "hazard": "very high",
                "color": "#800080"
            },
            "tomorrow": null,
            "day_after": null
        }
    },
    {
        "city": "Nörvenich",
        "lat": 50.807107,
        "lon": 6.644576,
        "forecasts": {
            "today": {
                "temp": 293.9,
                "feeling": "very hot",
                "hazard": "very high",
                "color": "#800080"
            },
            "tomorrow": null,
            "day_after": null
        }
    },
    {
        "city": "Titz",
        "lat": 51.007289,
        "lon": 6.428861,
        "forecasts": {
            "today": {
                "temp": 294.9,
                "feeling": "very hot",
                "hazard": "very high",
                "color": "#800080"
            },
            "tomorrow": null,
            "day_after": null
        }
    },
    {
        "city": "Vettweiß",
        "lat": 50.739488,
        "lon": 6.597533,
        "forecasts": {
            "today": {
                "temp": 293.4,
                "feeling": "very hot",
                "hazard": "very high",
                "color": "#800080"
            },
            "tomorrow": null,
            "day_after": null
        }
    },
    {
        "city": "Bedburg",
        "lat": 50.994862,
        "lon": 6.575238,
        "forecasts": {
            "today": {
                "temp": 295.5,
                "feeling": "very hot",
                "hazard": "very high",
                "color": "#800080"
            },
            "tomorrow": null,
            "day_after": null
        }
    },
    {
        "city": "Bergheim",
        "lat": 50.955113,
        "lon": 6.640252,
        "forecasts": {
            "today": {
                "temp": 295.1,
                "feeling": "very hot",
                "hazard": "very high",
                "color": "#800080"
            },
            "tomorrow": null,
            "day_after": null
        }
    },
    {
        "city": "Brühl",
        "lat": 50.82949,
        "lon": 6.902458,
        "forecasts": {
            "today": {
                "temp": 294.6,
                "feeling": "very hot",
                "hazard": "very high",
                "color": "#800080"
            },
            "tomorrow": null,
            "day_after": null
        }
    },
    {
        "city": "Elsdorf",
        "lat": 50.936059,
        "lon": 6.567973,
        "forecasts": {
            "today": {
                "temp": 295.3,
                "feeling": "very hot",
                "hazard": "very high",
                "color": "#800080"
            },
            "tomorrow": null,
            "day_after": null
        }
    },
    {
        "city": "Erftstadt",
        "lat": 50.812197,
        "lon": 6.811853,
        "forecasts": {
            "today": {
                "temp": 294.0,
                "feeling": "very hot",
                "hazard": "very high",
                "color": "#800080"
            },
            "tomorrow": null,
            "day_after": null
        }
    },
    {
        "city": "Frechen",
        "lat": 50.909715,
        "lon": 6.811192,
        "forecasts": {
            "today": {
                "temp": 294.4,
                "feeling": "very hot",
                "hazard": "very high",
                "color": "#800080"
            },
            "tomorrow": null,
            "day_after": null
        }
    },
    {
        "city": "Hürth",
        "lat": 50.869481,
        "lon": 6.865451,
        "forecasts": {
            "today": {
                "temp": 294.5,
                "feeling": "very hot",
                "hazard": "very high",
                "color": "#800080"
            },
            "tomorrow": null,
            "day_after": null
        }
    },
    {
        "city": "Kerpen",
        "lat": 50.869982,
        "lon": 6.694948,
        "forecasts": {
            "today": {
                "temp": 294.6,
                "feeling": "very hot",
                "hazard": "very high",
                "color": "#800080"
            },
            "tomorrow": null,
            "day_after": null
        }
    },
    {
        "city": "Pulheim",
        "lat": 50.998416,
        "lon": 6.800707,
        "forecasts": {
            "today": {
                "temp": 294.8,
                "feeling": "very hot",
                "hazard": "very high",
                "color": "#800080"
            },
            "tomorrow": null,
            "day_after": null
        }
    },
    {
        "city": "Wesseling",
        "lat": 50.824083,
        "lon": 6.979971,
        "forecasts": {
            "today": {
                "temp": 295.8,
                "feeling": "very hot",
                "hazard": "very high",
                "color": "#800080"
            },
            "tomorrow": null,
            "day_after": null
        }
    },
    {
        "city": "Bad Münstereifel",
        "lat": 50.556858,
        "lon": 6.765111,
        "forecasts": {
            "today": {
                "temp": 293.0,
                "feeling": "very hot",
                "hazard": "very high",
                "color": "#800080"
            },
            "tomorrow": null,
            "day_after": null
        }
    },
    {
        "city": "Blankenheim",
        "lat": 50.439106,
        "lon": 6.645162,
        "forecasts": {
            "today": {
                "temp": 292.2,
                "feeling": "very hot",
                "hazard": "very high",
                "color": "#800080"
            },
            "tomorrow": null,
            "day_after": null
        }
    },
    {
        "city": "Dahlem",
        "lat": 50.386329,
        "lon": 6.546603,
        "forecasts": {
            "today": {
                "temp": 292.2,
                "feeling": "very hot",
                "hazard": "very high",
                "color": "#800080"
            },
            "tomorrow": null,
            "day_after": null
        }
    },
    {
        "city": "Euskirchen",
        "lat": 50.660933,
        "lon": 6.786098,
        "forecasts": {
            "today": {
                "temp": 293.2,
                "feeling": "very hot",
                "hazard": "very high",
                "color": "#800080"
            },
            "tomorrow": null,
            "day_after": null
        }
    },
    {
        "city": "Hellenthal",
        "lat": 50.490262,
        "lon": 6.4342,
        "forecasts": {
            "today": {
                "temp": 290.8,
                "feeling": "very hot",
                "hazard": "very high",
                "color": "#800080"
            },
            "tomorrow": null,
            "day_after": null
        }
    },
    {
        "city": "Kall",
        "lat": 50.542174,
        "lon": 6.558667,
        "forecasts": {
            "today": {
                "temp": 293.4,
                "feeling": "very hot",
                "hazard": "very high",
                "color": "#800080"
            },
            "tomorrow": null,
            "day_after": null
        }
    },
    {
        "city": "Mechernich",
        "lat": 50.588604,
        "lon": 6.653673,
        "forecasts": {
            "today": {
                "temp": 293.8,
                "feeling": "very hot",
                "hazard": "very high",
                "color": "#800080"
            },
            "tomorrow": null,
            "day_after": null
        }
    },
    {
        "city": "Nettersheim",
        "lat": 50.491983,
        "lon": 6.627903,
        "forecasts": {
            "today": {
                "temp": 291.9,
                "feeling": "very hot",
                "hazard": "very high",
                "color": "#800080"
            },
            "tomorrow": null,
            "day_after": null
        }
    },
    {
        "city": "Schleiden",
        "lat": 50.530044,
        "lon": 6.47648,
        "forecasts": {
            "today": {
                "temp": 290.9,
                "feeling": "very hot",
                "hazard": "very high",
                "color": "#800080"
            },
            "tomorrow": null,
            "day_after": null
        }
    },
    {
        "city": "Weilerswist",
        "lat": 50.755939,
        "lon": 6.839629,
        "forecasts": {
            "today": {
                "temp": 293.6,
                "feeling": "very hot",
                "hazard": "very high",
                "color": "#800080"
            },
            "tomorrow": null,
            "day_after": null
        }
    },
    {
        "city": "Zülpich",
        "lat": 50.691294,
        "lon": 6.648155,
        "forecasts": {
            "today": {
                "temp": 292.7,
                "feeling": "very hot",
                "hazard": "very high",
                "color": "#800080"
            },
            "tomorrow": null,
            "day_after": null
        }
    },
    {
        "city": "Erkelenz",
        "lat": 51.078671,
        "lon": 6.314104,
        "forecasts": {
            "today": {
                "temp": 294.2,
                "feeling": "very hot",
                "hazard": "very high",
                "color": "#800080"
            },
            "tomorrow": null,
            "day_after": null
        }
    },
    {
        "city": "Gangelt",
        "lat": 50.992732,
        "lon": 5.997397,
        "forecasts": {
            "today": {
                "temp": 295.3,
                "feeling": "very hot",
                "hazard": "very high",
                "color": "#800080"
            },
            "tomorrow": null,
            "day_after": null
        }
    },
    {
        "city": "Geilenkirchen",
        "lat": 50.964538,
        "lon": 6.119722,
        "forecasts": {
            "today": {
                "temp": 294.6,
                "feeling": "very hot",
                "hazard": "very high",
                "color": "#800080"
            },
            "tomorrow": null,
            "day_after": null
        }
    },
    {
        "city": "Heinsberg",
        "lat": 51.061906,
        "lon": 6.094538,
        "forecasts": {
            "today": {
                "temp": 295.1,
                "feeling": "very hot",
                "hazard": "very high",
                "color": "#800080"
            },
            "tomorrow": null,
            "day_after": null
        }
    },
    {
        "city": "Hückelhoven",
        "lat": 51.05634,
        "lon": 6.226269,
        "forecasts": {
            "today": {
                "temp": 294.6,
                "feeling": "very hot",
                "hazard": "very high",
                "color": "#800080"
            },
            "tomorrow": null,
            "day_after": null
        }
    },
    {
        "city": "Selfkant",
        "lat": 51.014228,
        "lon": 5.902304,
        "forecasts": {
            "today": {
                "temp": 294.6,
                "feeling": "very hot",
                "hazard": "very high",
                "color": "#800080"
            },
            "tomorrow": null,
            "day_after": null
        }
    },
    {
        "city": "Übach-Palenberg",
        "lat": 50.919252,
        "lon": 6.118933,
        "forecasts": {
            "today": {
                "temp": 294.6,
                "feeling": "very hot",
                "hazard": "very high",
                "color": "#800080"
            },
            "tomorrow": null,
            "day_after": null
        }
    },
    {
        "city": "Waldfeucht",
        "lat": 51.066007,
        "lon": 5.988264,
        "forecasts": {
            "today": {
                "temp": 295.3,
                "feeling": "very hot",
                "hazard": "very high",
                "color": "#800080"
            },
            "tomorrow": null,
            "day_after": null
        }
    },
    {
        "city": "Wassenberg",
        "lat": 51.099533,
        "lon": 6.155749,
        "forecasts": {
            "today": {
                "temp": 295.1,
                "feeling": "very hot",
                "hazard": "very high",
                "color": "#800080"
            },
            "tomorrow": null,
            "day_after": null
        }
    },
    {
        "city": "Wegberg",
        "lat": 51.140129,
        "lon": 6.276829,
        "forecasts": {
            "today": {
                "temp": 294.7,
                "feeling": "very hot",
                "hazard": "very high",
                "color": "#800080"
            },
            "tomorrow": null,
            "day_after": null
        }
    },
    {
        "city": "Bergneustadt",
        "lat": 51.021118,
        "lon": 7.648337,
        "forecasts": {
            "today": {
                "temp": 291.3,
                "feeling": "very hot",
                "hazard": "very high",
                "color": "#800080"
            },
            "tomorrow": null,
            "day_after": null
        }
    },
    {
        "city": "Engelskirchen",
        "lat": 50.988292,
        "lon": 7.408515,
        "forecasts": {
            "today": {
                "temp": 291.8,
                "feeling": "very hot",
                "hazard": "very high",
                "color": "#800080"
            },
            "tomorrow": null,
            "day_after": null
        }
    },
    {
        "city": "Gummersbach",
        "lat": 51.028326,
        "lon": 7.568149,
        "forecasts": {
            "today": {
                "temp": 291.4,
                "feeling": "very hot",
                "hazard": "very high",
                "color": "#800080"
            },
            "tomorrow": null,
            "day_after": null
        }
    },
    {
        "city": "Hückeswagen",
        "lat": 51.14861,
        "lon": 7.334939,
        "forecasts": {
            "today": {
                "temp": 291.0,
                "feeling": "very hot",
                "hazard": "very high",
                "color": "#800080"
            },
            "tomorrow": null,
            "day_after": null
        }
    },
    {
        "city": "Lindlar",
        "lat": 51.019717,
        "lon": 7.376293,
        "forecasts": {
            "today": {
                "temp": 292.1,
                "feeling": "very hot",
                "hazard": "very high",
                "color": "#800080"
            },
            "tomorrow": null,
            "day_after": null
        }
    },
    {
        "city": "Marienheide",
        "lat": 51.08374,
        "lon": 7.531284,
        "forecasts": {
            "today": {
                "temp": 290.8,
                "feeling": "very hot",
                "hazard": "very high",
                "color": "#800080"
            },
            "tomorrow": null,
            "day_after": null
        }
    },
    {
        "city": "Morsbach",
        "lat": 50.864325,
        "lon": 7.727424,
        "forecasts": {
            "today": {
                "temp": 291.7,
                "feeling": "very hot",
                "hazard": "very high",
                "color": "#800080"
            },
            "tomorrow": null,
            "day_after": null
        }
    },
    {
        "city": "Nümbrecht",
        "lat": 50.902351,
        "lon": 7.540904,
        "forecasts": {
            "today": {
                "temp": 292.6,
                "feeling": "very hot",
                "hazard": "very high",
                "color": "#800080"
            },
            "tomorrow": null,
            "day_after": null
        }
    },
    {
        "city": "Radevormwald",
        "lat": 51.203463,
        "lon": 7.355144,
        "forecasts": {
            "today": {
                "temp": 290.7,
                "feeling": "very hot",
                "hazard": "very high",
                "color": "#800080"
            },
            "tomorrow": null,
            "day_after": null
        }
    },
    {
        "city": "Reichshof",
        "lat": 50.988215,
        "lon": 7.693856,
        "forecasts": {
            "today": {
                "temp": 291.1,
                "feeling": "very hot",
                "hazard": "very high",
                "color": "#800080"
            },
            "tomorrow": null,
            "day_after": null
        }
    },
    {
        "city": "Waldbröl",
        "lat": 50.876593,
        "lon": 7.617394,
        "forecasts": {
            "today": {
                "temp": 292.1,
                "feeling": "very hot",
                "hazard": "very high",
                "color": "#800080"
            },
            "tomorrow": null,
            "day_after": null
        }
    },
    {
        "city": "Wiehl",
        "lat": 50.949871,
        "lon": 7.547029,
        "forecasts": {
            "today": {
                "temp": 292.1,
                "feeling": "very hot",
                "hazard": "very high",
                "color": "#800080"
            },
            "tomorrow": null,
            "day_after": null
        }
    },
    {
        "city": "Wipperfürth",
        "lat": 51.117041,
        "lon": 7.398693,
        "forecasts": {
            "today": {
                "temp": 290.9,
                "feeling": "very hot",
                "hazard": "very high",
                "color": "#800080"
            },
            "tomorrow": null,
            "day_after": null
        }
    },
    {
        "city": "Bergisch Gladbach",
        "lat": 50.992244,
        "lon": 7.130608,
        "forecasts": {
            "today": {
                "temp": 293.6,
                "feeling": "very hot",
                "hazard": "very high",
                "color": "#800080"
            },
            "tomorrow": null,
            "day_after": null
        }
    },
    {
        "city": "Burscheid",
        "lat": 51.085749,
        "lon": 7.113704,
        "forecasts": {
            "today": {
                "temp": 293.0,
                "feeling": "very hot",
                "hazard": "very high",
                "color": "#800080"
            },
            "tomorrow": null,
            "day_after": null
        }
    },
    {
        "city": "Kürten",
        "lat": 51.051583,
        "lon": 7.264225,
        "forecasts": {
            "today": {
                "temp": 292.1,
                "feeling": "very hot",
                "hazard": "very high",
                "color": "#800080"
            },
            "tomorrow": null,
            "day_after": null
        }
    },
    {
        "city": "Leichlingen (Rhld.)",
        "lat": 51.106014,
        "lon": 7.014244,
        "forecasts": {
            "today": {
                "temp": 293.4,
                "feeling": "very hot",
                "hazard": "very high",
                "color": "#800080"
            },
            "tomorrow": null,
            "day_after": null
        }
    },
    {
        "city": "Odenthal",
        "lat": 51.032576,
        "lon": 7.116919,
        "forecasts": {
            "today": {
                "temp": 293.0,
                "feeling": "very hot",
                "hazard": "very high",
                "color": "#800080"
            },
            "tomorrow": null,
            "day_after": null
        }
    },
    {
        "city": "Overath",
        "lat": 50.933092,
        "lon": 7.282487,
        "forecasts": {
            "today": {
                "temp": 293.0,
                "feeling": "very hot",
                "hazard": "very high",
                "color": "#800080"
            },
            "tomorrow": null,
            "day_after": null
        }
    },
    {
        "city": "Rösrath",
        "lat": 50.895438,
        "lon": 7.181947,
        "forecasts": {
            "today": {
                "temp": 294.7,
                "feeling": "very hot",
                "hazard": "very high",
                "color": "#800080"
            },
            "tomorrow": null,
            "day_after": null
        }
    },
    {
        "city": "Wermelskirchen",
        "lat": 51.140138,
        "lon": 7.216722,
        "forecasts": {
            "today": {
                "temp": 291.5,
                "feeling": "very hot",
                "hazard": "very high",
                "color": "#800080"
            },
            "tomorrow": null,
            "day_after": null
        }
    },
    {
        "city": "Alfter",
        "lat": 50.736995,
        "lon": 7.013472,
        "forecasts": {
            "today": {
                "temp": 295.4,
                "feeling": "very hot",
                "hazard": "very high",
                "color": "#800080"
            },
            "tomorrow": null,
            "day_after": null
        }
    },
    {
        "city": "Bad Honnef",
        "lat": 50.643591,
        "lon": 7.229126,
        "forecasts": {
            "today": {
                "temp": 293.9,
                "feeling": "very hot",
                "hazard": "very high",
                "color": "#800080"
            },
            "tomorrow": null,
            "day_after": null
        }
    },
    {
        "city": "Bornheim",
        "lat": 50.762547,
        "lon": 6.990342,
        "forecasts": {
            "today": {
                "temp": 295.4,
                "feeling": "very hot",
                "hazard": "very high",
                "color": "#800080"
            },
            "tomorrow": null,
            "day_after": null
        }
    },
    {
        "city": "Eitorf",
        "lat": 50.769915,
        "lon": 7.449515,
        "forecasts": {
            "today": {
                "temp": 293.3,
                "feeling": "very hot",
                "hazard": "very high",
                "color": "#800080"
            },
            "tomorrow": null,
            "day_after": null
        }
    },
    {
        "city": "Hennef (Sieg)",
        "lat": 50.775911,
        "lon": 7.282575,
        "forecasts": {
            "today": {
                "temp": 294.3,
                "feeling": "very hot",
                "hazard": "very high",
                "color": "#800080"
            },
            "tomorrow": null,
            "day_after": null
        }
    },
    {
        "city": "Königswinter",
        "lat": 50.676869,
        "lon": 7.191597,
        "forecasts": {
            "today": {
                "temp": 294.3,
                "feeling": "very hot",
                "hazard": "very high",
                "color": "#800080"
            },
            "tomorrow": null,
            "day_after": null
        }
    },
    {
        "city": "Lohmar",
        "lat": 50.839775,
        "lon": 7.209401,
        "forecasts": {
            "today": {
                "temp": 295.1,
                "feeling": "very hot",
                "hazard": "very high",
                "color": "#800080"
            },
            "tomorrow": null,
            "day_after": null
        }
    },
    {
        "city": "Meckenheim",
        "lat": 50.622043,
        "lon": 7.022259,
        "forecasts": {
            "today": {
                "temp": 294.2,
                "feeling": "very hot",
                "hazard": "very high",
                "color": "#800080"
            },
            "tomorrow": null,
            "day_after": null
        }
    },
    {
        "city": "Much",
        "lat": 50.905488,
        "lon": 7.407202,
        "forecasts": {
            "today": {
                "temp": 293.3,
                "feeling": "very hot",
                "hazard": "very high",
                "color": "#800080"
            },
            "tomorrow": null,
            "day_after": null
        }
    },
    {
        "city": "Neunkirchen-Seelscheid",
        "lat": 50.841143,
        "lon": 7.334361,
        "forecasts": {
            "today": {
                "temp": 294.1,
                "feeling": "very hot",
                "hazard": "very high",
                "color": "#800080"
            },
            "tomorrow": null,
            "day_after": null
        }
    },
    {
        "city": "Niederkassel",
        "lat": 50.811921,
        "lon": 7.037503,
        "forecasts": {
            "today": {
                "temp": 295.6,
                "feeling": "very hot",
                "hazard": "very high",
                "color": "#800080"
            },
            "tomorrow": null,
            "day_after": null
        }
    },
    {
        "city": "Rheinbach",
        "lat": 50.626425,
        "lon": 6.947218,
        "forecasts": {
            "today": {
                "temp": 293.6,
                "feeling": "very hot",
                "hazard": "very high",
                "color": "#800080"
            },
            "tomorrow": null,
            "day_after": null
        }
    },
    {
        "city": "Ruppichteroth",
        "lat": 50.843966,
        "lon": 7.483618,
        "forecasts": {
            "today": {
                "temp": 293.0,
                "feeling": "very hot",
                "hazard": "very high",
                "color": "#800080"
            },
            "tomorrow": null,
            "day_after": null
        }
    },
    {
        "city": "Sankt Augustin",
        "lat": 50.77333,
        "lon": 7.185259,
        "forecasts": {
            "today": {
                "temp": 294.7,
                "feeling": "very hot",
                "hazard": "very high",
                "color": "#800080"
            },
            "tomorrow": null,
            "day_after": null
        }
    },
    {
        "city": "Siegburg",
        "lat": 50.796665,
        "lon": 7.2049,
        "forecasts": {
            "today": {
                "temp": 295.1,
                "feeling": "very hot",
                "hazard": "very high",
                "color": "#800080"
            },
            "tomorrow": null,
            "day_after": null
        }
    },
    {
        "city": "Swisttal",
        "lat": 50.666197,
        "lon": 6.893733,
        "forecasts": {
            "today": {
                "temp": 293.7,
                "feeling": "very hot",
                "hazard": "very high",
                "color": "#800080"
            },
            "tomorrow": null,
            "day_after": null
        }
    },
    {
        "city": "Troisdorf",
        "lat": 50.812544,
        "lon": 7.162309,
        "forecasts": {
            "today": {
                "temp": 295.1,
                "feeling": "very hot",
                "hazard": "very high",
                "color": "#800080"
            },
            "tomorrow": null,
            "day_after": null
        }
    },
    {
        "city": "Wachtberg",
        "lat": 50.625511,
        "lon": 7.135098,
        "forecasts": {
            "today": {
                "temp": 294.6,
                "feeling": "very hot",
                "hazard": "very high",
                "color": "#800080"
            },
            "tomorrow": null,
            "day_after": null
        }
    },
    {
        "city": "Windeck",
        "lat": 50.800858,
        "lon": 7.607304,
        "forecasts": {
            "today": {
                "temp": 292.7,
                "feeling": "very hot",
                "hazard": "very high",
                "color": "#800080"
            },
            "tomorrow": null,
            "day_after": null
        }
    },
    {
        "city": "Bottrop",
        "lat": 51.523694,
        "lon": 6.929939,
        "forecasts": {
            "today": {
                "temp": 293.2,
                "feeling": "very hot",
                "hazard": "very high",
                "color": "#800080"
            },
            "tomorrow": null,
            "day_after": null
        }
    },
    {
        "city": "Gelsenkirchen",
        "lat": 51.510892,
        "lon": 7.096064,
        "forecasts": {
            "today": {
                "temp": 292.3,
                "feeling": "very hot",
                "hazard": "very high",
                "color": "#800080"
            },
            "tomorrow": null,
            "day_after": null
        }
    },
    {
        "city": "Münster",
        "lat": 51.961908,
        "lon": 7.626804,
        "forecasts": {
            "today": {
                "temp": 295.5,
                "feeling": "very hot",
                "hazard": "very high",
                "color": "#800080"
            },
            "tomorrow": null,
            "day_after": null
        }
    },
    {
        "city": "Ahaus",
        "lat": 52.076104,
        "lon": 7.005037,
        "forecasts": {
            "today": {
                "temp": 292.7,
                "feeling": "very hot",
                "hazard": "very high",
                "color": "#800080"
            },
            "tomorrow": null,
            "day_after": null
        }
    },
    {
        "city": "Bocholt",
        "lat": 51.837931,
        "lon": 6.61564,
        "forecasts": {
            "today": {
                "temp": 293.9,
                "feeling": "very hot",
                "hazard": "very high",
                "color": "#800080"
            },
            "tomorrow": null,
            "day_after": null
        }
    },
    {
        "city": "Borken",
        "lat": 51.844144,
        "lon": 6.855071,
        "forecasts": {
            "today": {
                "temp": 292.7,
                "feeling": "very hot",
                "hazard": "very high",
                "color": "#800080"
            },
            "tomorrow": null,
            "day_after": null
        }
    },
    {
        "city": "Gescher",
        "lat": 51.955894,
        "lon": 7.005391,
        "forecasts": {
            "today": {
                "temp": 292.1,
                "feeling": "very hot",
                "hazard": "very high",
                "color": "#800080"
            },
            "tomorrow": null,
            "day_after": null
        }
    },
    {
        "city": "Gronau (Westf.)",
        "lat": 52.212285,
        "lon": 7.019103,
        "forecasts": {
            "today": {
                "temp": 292.9,
                "feeling": "very hot",
                "hazard": "very high",
                "color": "#800080"
            },
            "tomorrow": null,
            "day_after": null
        }
    },
    {
        "city": "Heek",
        "lat": 52.116177,
        "lon": 7.111581,
        "forecasts": {
            "today": {
                "temp": 292.6,
                "feeling": "very hot",
                "hazard": "very high",
                "color": "#800080"
            },
            "tomorrow": null,
            "day_after": null
        }
    },
    {
        "city": "Heiden",
        "lat": 51.82596,
        "lon": 6.931789,
        "forecasts": {
            "today": {
                "temp": 292.3,
                "feeling": "very hot",
                "hazard": "very high",
                "color": "#800080"
            },
            "tomorrow": null,
            "day_after": null
        }
    },
    {
        "city": "Isselburg",
        "lat": 51.833517,
        "lon": 6.463264,
        "forecasts": {
            "today": {
                "temp": 294.0,
                "feeling": "very hot",
                "hazard": "very high",
                "color": "#800080"
            },
            "tomorrow": null,
            "day_after": null
        }
    },
    {
        "city": "Legden",
        "lat": 52.030639,
        "lon": 7.105517,
        "forecasts": {
            "today": {
                "temp": 292.0,
                "feeling": "very hot",
                "hazard": "very high",
                "color": "#800080"
            },
            "tomorrow": null,
            "day_after": null
        }
    },
    {
        "city": "Raesfeld",
        "lat": 51.769328,
        "lon": 6.84057,
        "forecasts": {
            "today": {
                "temp": 293.4,
                "feeling": "very hot",
                "hazard": "very high",
                "color": "#800080"
            },
            "tomorrow": null,
            "day_after": null
        }
    },
    {
        "city": "Reken",
        "lat": 51.83183,
        "lon": 7.047388,
        "forecasts": {
            "today": {
                "temp": 292.1,
                "feeling": "very hot",
                "hazard": "very high",
                "color": "#800080"
            },
            "tomorrow": null,
            "day_after": null
        }
    },
    {
        "city": "Rhede",
        "lat": 51.840781,
        "lon": 6.696075,
        "forecasts": {
            "today": {
                "temp": 293.8,
                "feeling": "very hot",
                "hazard": "very high",
                "color": "#800080"
            },
            "tomorrow": null,
            "day_after": null
        }
    },
    {
        "city": "Schöppingen",
        "lat": 52.093571,
        "lon": 7.235057,
        "forecasts": {
            "today": {
                "temp": 292.7,
                "feeling": "very hot",
                "hazard": "very high",
                "color": "#800080"
            },
            "tomorrow": null,
            "day_after": null
        }
    },
    {
        "city": "Stadtlohn",
        "lat": 51.992602,
        "lon": 6.918003,
        "forecasts": {
            "today": {
                "temp": 292.5,
                "feeling": "very hot",
                "hazard": "very high",
                "color": "#800080"
            },
            "tomorrow": null,
            "day_after": null
        }
    },
    {
        "city": "Südlohn",
        "lat": 51.944322,
        "lon": 6.865981,
        "forecasts": {
            "today": {
                "temp": 292.7,
                "feeling": "very hot",
                "hazard": "very high",
                "color": "#800080"
            },
            "tomorrow": null,
            "day_after": null
        }
    },
    {
        "city": "Velen",
        "lat": 51.894372,
        "lon": 6.986506,
        "forecasts": {
            "today": {
                "temp": 292.0,
                "feeling": "very hot",
                "hazard": "very high",
                "color": "#800080"
            },
            "tomorrow": null,
            "day_after": null
        }
    },
    {
        "city": "Vreden",
        "lat": 52.036087,
        "lon": 6.824021,
        "forecasts": {
            "today": {
                "temp": 292.8,
                "feeling": "very hot",
                "hazard": "very high",
                "color": "#800080"
            },
            "tomorrow": null,
            "day_after": null
        }
    },
    {
        "city": "Ascheberg",
        "lat": 51.79173,
        "lon": 7.624004,
        "forecasts": {
            "today": {
                "temp": 294.1,
                "feeling": "very hot",
                "hazard": "very high",
                "color": "#800080"
            },
            "tomorrow": null,
            "day_after": null
        }
    },
    {
        "city": "Billerbeck",
        "lat": 51.977524,
        "lon": 7.290998,
        "forecasts": {
            "today": {
                "temp": 293.7,
                "feeling": "very hot",
                "hazard": "very high",
                "color": "#800080"
            },
            "tomorrow": null,
            "day_after": null
        }
    },
    {
        "city": "Coesfeld",
        "lat": 51.944948,
        "lon": 7.166744,
        "forecasts": {
            "today": {
                "temp": 292.2,
                "feeling": "very hot",
                "hazard": "very high",
                "color": "#800080"
            },
            "tomorrow": null,
            "day_after": null
        }
    },
    {
        "city": "Dülmen",
        "lat": 51.828537,
        "lon": 7.279146,
        "forecasts": {
            "today": {
                "temp": 293.4,
                "feeling": "very hot",
                "hazard": "very high",
                "color": "#800080"
            },
            "tomorrow": null,
            "day_after": null
        }
    },
    {
        "city": "Havixbeck",
        "lat": 51.975907,
        "lon": 7.414407,
        "forecasts": {
            "today": {
                "temp": 295.0,
                "feeling": "very hot",
                "hazard": "very high",
                "color": "#800080"
            },
            "tomorrow": null,
            "day_after": null
        }
    },
    {
        "city": "Lüdinghausen",
        "lat": 51.770372,
        "lon": 7.443711,
        "forecasts": {
            "today": {
                "temp": 293.9,
                "feeling": "very hot",
                "hazard": "very high",
                "color": "#800080"
            },
            "tomorrow": null,
            "day_after": null
        }
    },
    {
        "city": "Nordkirchen",
        "lat": 51.738183,
        "lon": 7.525307,
        "forecasts": {
            "today": {
                "temp": 293.5,
                "feeling": "very hot",
                "hazard": "very high",
                "color": "#800080"
            },
            "tomorrow": null,
            "day_after": null
        }
    },
    {
        "city": "Nottuln",
        "lat": 51.928018,
        "lon": 7.352893,
        "forecasts": {
            "today": {
                "temp": 294.9,
                "feeling": "very hot",
                "hazard": "very high",
                "color": "#800080"
            },
            "tomorrow": null,
            "day_after": null
        }
    },
    {
        "city": "Olfen",
        "lat": 51.708879,
        "lon": 7.38,
        "forecasts": {
            "today": {
                "temp": 293.4,
                "feeling": "very hot",
                "hazard": "very high",
                "color": "#800080"
            },
            "tomorrow": null,
            "day_after": null
        }
    },
    {
        "city": "Rosendahl",
        "lat": 52.016807,
        "lon": 7.209896,
        "forecasts": {
            "today": {
                "temp": 292.2,
                "feeling": "very hot",
                "hazard": "very high",
                "color": "#800080"
            },
            "tomorrow": null,
            "day_after": null
        }
    },
    {
        "city": "Senden",
        "lat": 51.857701,
        "lon": 7.485434,
        "forecasts": {
            "today": {
                "temp": 294.5,
                "feeling": "very hot",
                "hazard": "very high",
                "color": "#800080"
            },
            "tomorrow": null,
            "day_after": null
        }
    },
    {
        "city": "Castrop-Rauxel",
        "lat": 51.553877,
        "lon": 7.310925,
        "forecasts": {
            "today": {
                "temp": 292.0,
                "feeling": "very hot",
                "hazard": "very high",
                "color": "#800080"
            },
            "tomorrow": null,
            "day_after": null
        }
    },
    {
        "city": "Datteln",
        "lat": 51.653082,
        "lon": 7.342615,
        "forecasts": {
            "today": {
                "temp": 292.6,
                "feeling": "very hot",
                "hazard": "very high",
                "color": "#800080"
            },
            "tomorrow": null,
            "day_after": null
        }
    },
    {
        "city": "Dorsten",
        "lat": 51.660837,
        "lon": 6.964689,
        "forecasts": {
            "today": {
                "temp": 292.5,
                "feeling": "very hot",
                "hazard": "very high",
                "color": "#800080"
            },
            "tomorrow": null,
            "day_after": null
        }
    },
    {
        "city": "Gladbeck",
        "lat": 51.573424,
        "lon": 6.992723,
        "forecasts": {
            "today": {
                "temp": 292.8,
                "feeling": "very hot",
                "hazard": "very high",
                "color": "#800080"
            },
            "tomorrow": null,
            "day_after": null
        }
    },
    {
        "city": "Haltern am See",
        "lat": 51.743737,
        "lon": 7.187214,
        "forecasts": {
            "today": {
                "temp": 292.9,
                "feeling": "very hot",
                "hazard": "very high",
                "color": "#800080"
            },
            "tomorrow": null,
            "day_after": null
        }
    },
    {
        "city": "Herten",
        "lat": 51.59465,
        "lon": 7.140236,
        "forecasts": {
            "today": {
                "temp": 291.9,
                "feeling": "very hot",
                "hazard": "very high",
                "color": "#800080"
            },
            "tomorrow": null,
            "day_after": null
        }
    },
    {
        "city": "Marl",
        "lat": 51.658211,
        "lon": 7.101811,
        "forecasts": {
            "today": {
                "temp": 292.5,
                "feeling": "very hot",
                "hazard": "very high",
                "color": "#800080"
            },
            "tomorrow": null,
            "day_after": null
        }
    },
    {
        "city": "Oer-Erkenschwick",
        "lat": 51.639877,
        "lon": 7.260829,
        "forecasts": {
            "today": {
                "temp": 292.3,
                "feeling": "very hot",
                "hazard": "very high",
                "color": "#800080"
            },
            "tomorrow": null,
            "day_after": null
        }
    },
    {
        "city": "Recklinghausen",
        "lat": 51.614576,
        "lon": 7.197544,
        "forecasts": {
            "today": {
                "temp": 292.2,
                "feeling": "very hot",
                "hazard": "very high",
                "color": "#800080"
            },
            "tomorrow": null,
            "day_after": null
        }
    },
    {
        "city": "Waltrop",
        "lat": 51.622128,
        "lon": 7.400687,
        "forecasts": {
            "today": {
                "temp": 292.6,
                "feeling": "very hot",
                "hazard": "very high",
                "color": "#800080"
            },
            "tomorrow": null,
            "day_after": null
        }
    },
    {
        "city": "Altenberge",
        "lat": 52.045876,
        "lon": 7.465557,
        "forecasts": {
            "today": {
                "temp": 294.8,
                "feeling": "very hot",
                "hazard": "very high",
                "color": "#800080"
            },
            "tomorrow": null,
            "day_after": null
        }
    },
    {
        "city": "Emsdetten",
        "lat": 52.172195,
        "lon": 7.527511,
        "forecasts": {
            "today": {
                "temp": 295.0,
                "feeling": "very hot",
                "hazard": "very high",
                "color": "#800080"
            },
            "tomorrow": null,
            "day_after": null
        }
    },
    {
        "city": "Greven",
        "lat": 52.092652,
        "lon": 7.613202,
        "forecasts": {
            "today": {
                "temp": 295.5,
                "feeling": "very hot",
                "hazard": "very high",
                "color": "#800080"
            },
            "tomorrow": null,
            "day_after": null
        }
    },
    {
        "city": "Hörstel",
        "lat": 52.300221,
        "lon": 7.587248,
        "forecasts": {
            "today": {
                "temp": 294.9,
                "feeling": "very hot",
                "hazard": "very high",
                "color": "#800080"
            },
            "tomorrow": null,
            "day_after": null
        }
    },
    {
        "city": "Hopsten",
        "lat": 52.383026,
        "lon": 7.602873,
        "forecasts": {
            "today": {
                "temp": 294.5,
                "feeling": "very hot",
                "hazard": "very high",
                "color": "#800080"
            },
            "tomorrow": null,
            "day_after": null
        }
    },
    {
        "city": "Horstmar",
        "lat": 52.080812,
        "lon": 7.305156,
        "forecasts": {
            "today": {
                "temp": 293.4,
                "feeling": "very hot",
                "hazard": "very high",
                "color": "#800080"
            },
            "tomorrow": null,
            "day_after": null
        }
    },
    {
        "city": "Ibbenbüren",
        "lat": 52.275364,
        "lon": 7.714734,
        "forecasts": {
            "today": {
                "temp": 294.2,
                "feeling": "very hot",
                "hazard": "very high",
                "color": "#800080"
            },
            "tomorrow": null,
            "day_after": null
        }
    },
    {
        "city": "Ladbergen",
        "lat": 52.136598,
        "lon": 7.737293,
        "forecasts": {
            "today": {
                "temp": 294.5,
                "feeling": "very hot",
                "hazard": "very high",
                "color": "#800080"
            },
            "tomorrow": null,
            "day_after": null
        }
    },
    {
        "city": "Laer",
        "lat": 52.054322,
        "lon": 7.357204,
        "forecasts": {
            "today": {
                "temp": 294.3,
                "feeling": "very hot",
                "hazard": "very high",
                "color": "#800080"
            },
            "tomorrow": null,
            "day_after": null
        }
    },
    {
        "city": "Lengerich",
        "lat": 52.189765,
        "lon": 7.85266,
        "forecasts": {
            "today": {
                "temp": 293.9,
                "feeling": "very hot",
                "hazard": "very high",
                "color": "#800080"
            },
            "tomorrow": null,
            "day_after": null
        }
    },
    {
        "city": "Lienen",
        "lat": 52.146807,
        "lon": 7.97575,
        "forecasts": {
            "today": {
                "temp": 294.5,
                "feeling": "very hot",
                "hazard": "very high",
                "color": "#800080"
            },
            "tomorrow": null,
            "day_after": null
        }
    },
    {
        "city": "Lotte",
        "lat": 52.274892,
        "lon": 7.915207,
        "forecasts": {
            "today": {
                "temp": 293.4,
                "feeling": "very hot",
                "hazard": "very high",
                "color": "#800080"
            },
            "tomorrow": null,
            "day_after": null
        }
    },
    {
        "city": "Metelen",
        "lat": 52.144232,
        "lon": 7.211686,
        "forecasts": {
            "today": {
                "temp": 292.6,
                "feeling": "very hot",
                "hazard": "very high",
                "color": "#800080"
            },
            "tomorrow": null,
            "day_after": null
        }
    },
    {
        "city": "Mettingen",
        "lat": 52.315593,
        "lon": 7.779092,
        "forecasts": {
            "today": {
                "temp": 294.2,
                "feeling": "very hot",
                "hazard": "very high",
                "color": "#800080"
            },
            "tomorrow": null,
            "day_after": null
        }
    },
    {
        "city": "Neuenkirchen",
        "lat": 52.244641,
        "lon": 7.37282,
        "forecasts": {
            "today": {
                "temp": 293.9,
                "feeling": "very hot",
                "hazard": "very high",
                "color": "#800080"
            },
            "tomorrow": null,
            "day_after": null
        }
    },
    {
        "city": "Nordwalde",
        "lat": 52.084294,
        "lon": 7.480649,
        "forecasts": {
            "today": {
                "temp": 294.9,
                "feeling": "very hot",
                "hazard": "very high",
                "color": "#800080"
            },
            "tomorrow": null,
            "day_after": null
        }
    },
    {
        "city": "Ochtrup",
        "lat": 52.208516,
        "lon": 7.18865,
        "forecasts": {
            "today": {
                "temp": 292.9,
                "feeling": "very hot",
                "hazard": "very high",
                "color": "#800080"
            },
            "tomorrow": null,
            "day_after": null
        }
    },
    {
        "city": "Recke",
        "lat": 52.370571,
        "lon": 7.718617,
        "forecasts": {
            "today": {
                "temp": 294.2,
                "feeling": "very hot",
                "hazard": "very high",
                "color": "#800080"
            },
            "tomorrow": null,
            "day_after": null
        }
    },
    {
        "city": "Rheine",
        "lat": 52.279214,
        "lon": 7.438651,
        "forecasts": {
            "today": {
                "temp": 294.6,
                "feeling": "very hot",
                "hazard": "very high",
                "color": "#800080"
            },
            "tomorrow": null,
            "day_after": null
        }
    },
    {
        "city": "Saerbeck",
        "lat": 52.173086,
        "lon": 7.633669,
        "forecasts": {
            "today": {
                "temp": 294.9,
                "feeling": "very hot",
                "hazard": "very high",
                "color": "#800080"
            },
            "tomorrow": null,
            "day_after": null
        }
    },
    {
        "city": "Steinfurt",
        "lat": 52.125169,
        "lon": 7.395195,
        "forecasts": {
            "today": {
                "temp": 293.8,
                "feeling": "very hot",
                "hazard": "very high",
                "color": "#800080"
            },
            "tomorrow": null,
            "day_after": null
        }
    },
    {
        "city": "Tecklenburg",
        "lat": 52.219392,
        "lon": 7.814244,
        "forecasts": {
            "today": {
                "temp": 294.5,
                "feeling": "very hot",
                "hazard": "very high",
                "color": "#800080"
            },
            "tomorrow": null,
            "day_after": null
        }
    },
    {
        "city": "Westerkappeln",
        "lat": 52.314798,
        "lon": 7.877587,
        "forecasts": {
            "today": {
                "temp": 293.9,
                "feeling": "very hot",
                "hazard": "very high",
                "color": "#800080"
            },
            "tomorrow": null,
            "day_after": null
        }
    },
    {
        "city": "Wettringen",
        "lat": 52.209339,
        "lon": 7.319404,
        "forecasts": {
            "today": {
                "temp": 293.5,
                "feeling": "very hot",
                "hazard": "very high",
                "color": "#800080"
            },
            "tomorrow": null,
            "day_after": null
        }
    },
    {
        "city": "Ahlen",
        "lat": 51.762985,
        "lon": 7.889882,
        "forecasts": {
            "today": {
                "temp": 293.8,
                "feeling": "very hot",
                "hazard": "very high",
                "color": "#800080"
            },
            "tomorrow": null,
            "day_after": null
        }
    },
    {
        "city": "Beckum",
        "lat": 51.75574,
        "lon": 8.042672,
        "forecasts": {
            "today": {
                "temp": 293.2,
                "feeling": "very hot",
                "hazard": "very high",
                "color": "#800080"
            },
            "tomorrow": null,
            "day_after": null
        }
    },
    {
        "city": "Beelen",
        "lat": 51.930124,
        "lon": 8.118191,
        "forecasts": {
            "today": {
                "temp": 293.9,
                "feeling": "very hot",
                "hazard": "very high",
                "color": "#800080"
            },
            "tomorrow": null,
            "day_after": null
        }
    },
    {
        "city": "Drensteinfurt",
        "lat": 51.797048,
        "lon": 7.741663,
        "forecasts": {
            "today": {
                "temp": 294.4,
                "feeling": "very hot",
                "hazard": "very high",
                "color": "#800080"
            },
            "tomorrow": null,
            "day_after": null
        }
    },
    {
        "city": "Ennigerloh",
        "lat": 51.835127,
        "lon": 8.024092,
        "forecasts": {
            "today": {
                "temp": 293.8,
                "feeling": "very hot",
                "hazard": "very high",
                "color": "#800080"
            },
            "tomorrow": null,
            "day_after": null
        }
    },
    {
        "city": "Everswinkel",
        "lat": 51.925521,
        "lon": 7.848037,
        "forecasts": {
            "today": {
                "temp": 295.8,
                "feeling": "very hot",
                "hazard": "very high",
                "color": "#800080"
            },
            "tomorrow": null,
            "day_after": null
        }
    },
    {
        "city": "Oelde",
        "lat": 51.827467,
        "lon": 8.146074,
        "forecasts": {
            "today": {
                "temp": 293.0,
                "feeling": "very hot",
                "hazard": "very high",
                "color": "#800080"
            },
            "tomorrow": null,
            "day_after": null
        }
    },
    {
        "city": "Ostbevern",
        "lat": 52.036085,
        "lon": 7.839408,
        "forecasts": {
            "today": {
                "temp": 295.4,
                "feeling": "very hot",
                "hazard": "very high",
                "color": "#800080"
            },
            "tomorrow": null,
            "day_after": null
        }
    },
    {
        "city": "Sassenberg",
        "lat": 51.988098,
        "lon": 8.041446,
        "forecasts": {
            "today": {
                "temp": 294.8,
                "feeling": "very hot",
                "hazard": "very high",
                "color": "#800080"
            },
            "tomorrow": null,
            "day_after": null
        }
    },
    {
        "city": "Sendenhorst",
        "lat": 51.84466,
        "lon": 7.82746,
        "forecasts": {
            "today": {
                "temp": 295.4,
                "feeling": "very hot",
                "hazard": "very high",
                "color": "#800080"
            },
            "tomorrow": null,
            "day_after": null
        }
    },
    {
        "city": "Telgte",
        "lat": 51.982866,
        "lon": 7.784022,
        "forecasts": {
            "today": {
                "temp": 296.0,
                "feeling": "very hot",
                "hazard": "very high",
                "color": "#800080"
            },
            "tomorrow": null,
            "day_after": null
        }
    },
    {
        "city": "Wadersloh",
        "lat": 51.73696,
        "lon": 8.245997,
        "forecasts": {
            "today": {
                "temp": 293.9,
                "feeling": "very hot",
                "hazard": "very high",
                "color": "#800080"
            },
            "tomorrow": null,
            "day_after": null
        }
    },
    {
        "city": "Warendorf",
        "lat": 51.950713,
        "lon": 7.988499,
        "forecasts": {
            "today": {
                "temp": 295.1,
                "feeling": "very hot",
                "hazard": "very high",
                "color": "#800080"
            },
            "tomorrow": null,
            "day_after": null
        }
    },
    {
        "city": "Bielefeld",
        "lat": 52.020578,
        "lon": 8.53212,
        "forecasts": {
            "today": {
                "temp": 292.8,
                "feeling": "very hot",
                "hazard": "very high",
                "color": "#800080"
            },
            "tomorrow": null,
            "day_after": null
        }
    },
    {
        "city": "Borgholzhausen",
        "lat": 52.101931,
        "lon": 8.300771,
        "forecasts": {
            "today": {
                "temp": 293.7,
                "feeling": "very hot",
                "hazard": "very high",
                "color": "#800080"
            },
            "tomorrow": null,
            "day_after": null
        }
    },
    {
        "city": "Gütersloh",
        "lat": 51.909587,
        "lon": 8.381067,
        "forecasts": {
            "today": {
                "temp": 293.3,
                "feeling": "very hot",
                "hazard": "very high",
                "color": "#800080"
            },
            "tomorrow": null,
            "day_after": null
        }
    },
    {
        "city": "Halle (Westf.)",
        "lat": 52.061011,
        "lon": 8.362,
        "forecasts": {
            "today": {
                "temp": 292.9,
                "feeling": "very hot",
                "hazard": "very high",
                "color": "#800080"
            },
            "tomorrow": null,
            "day_after": null
        }
    },
    {
        "city": "Harsewinkel",
        "lat": 51.963062,
        "lon": 8.227621,
        "forecasts": {
            "today": {
                "temp": 293.6,
                "feeling": "very hot",
                "hazard": "very high",
                "color": "#800080"
            },
            "tomorrow": null,
            "day_after": null
        }
    },
    {
        "city": "Herzebrock-Clarholz",
        "lat": 51.879791,
        "lon": 8.240956,
        "forecasts": {
            "today": {
                "temp": 293.5,
                "feeling": "very hot",
                "hazard": "very high",
                "color": "#800080"
            },
            "tomorrow": null,
            "day_after": null
        }
    },
    {
        "city": "Langenberg",
        "lat": 51.775971,
        "lon": 8.320352,
        "forecasts": {
            "today": {
                "temp": 294.0,
                "feeling": "very hot",
                "hazard": "very high",
                "color": "#800080"
            },
            "tomorrow": null,
            "day_after": null
        }
    },
    {
        "city": "Rheda-Wiedenbrück",
        "lat": 51.855343,
        "lon": 8.293327,
        "forecasts": {
            "today": {
                "temp": 293.5,
                "feeling": "very hot",
                "hazard": "very high",
                "color": "#800080"
            },
            "tomorrow": null,
            "day_after": null
        }
    },
    {
        "city": "Rietberg",
        "lat": 51.808062,
        "lon": 8.427337,
        "forecasts": {
            "today": {
                "temp": 293.9,
                "feeling": "very hot",
                "hazard": "very high",
                "color": "#800080"
            },
            "tomorrow": null,
            "day_after": null
        }
    },
    {
        "city": "Schloß Holte-Stukenbrock",
        "lat": 51.912069,
        "lon": 8.656299,
        "forecasts": {
            "today": {
                "temp": 291.8,
                "feeling": "very hot",
                "hazard": "very high",
                "color": "#800080"
            },
            "tomorrow": null,
            "day_after": null
        }
    },
    {
        "city": "Steinhagen",
        "lat": 52.006186,
        "lon": 8.414975,
        "forecasts": {
            "today": {
                "temp": 292.6,
                "feeling": "very hot",
                "hazard": "very high",
                "color": "#800080"
            },
            "tomorrow": null,
            "day_after": null
        }
    },
    {
        "city": "Verl",
        "lat": 51.882118,
        "lon": 8.508286,
        "forecasts": {
            "today": {
                "temp": 293.4,
                "feeling": "very hot",
                "hazard": "very high",
                "color": "#800080"
            },
            "tomorrow": null,
            "day_after": null
        }
    },
    {
        "city": "Versmold",
        "lat": 52.040049,
        "lon": 8.155495,
        "forecasts": {
            "today": {
                "temp": 294.6,
                "feeling": "very hot",
                "hazard": "very high",
                "color": "#800080"
            },
            "tomorrow": null,
            "day_after": null
        }
    },
    {
        "city": "Werther (Westf.)",
        "lat": 52.072545,
        "lon": 8.411163,
        "forecasts": {
            "today": {
                "temp": 292.8,
                "feeling": "very hot",
                "hazard": "very high",
                "color": "#800080"
            },
            "tomorrow": null,
            "day_after": null
        }
    },
    {
        "city": "Bünde",
        "lat": 52.197547,
        "lon": 8.58371,
        "forecasts": {
            "today": {
                "temp": 293.7,
                "feeling": "very hot",
                "hazard": "very high",
                "color": "#800080"
            },
            "tomorrow": null,
            "day_after": null
        }
    },
    {
        "city": "Enger",
        "lat": 52.139237,
        "lon": 8.559282,
        "forecasts": {
            "today": {
                "temp": 293.6,
                "feeling": "very hot",
                "hazard": "very high",
                "color": "#800080"
            },
            "tomorrow": null,
            "day_after": null
        }
    },
    {
        "city": "Herford",
        "lat": 52.115598,
        "lon": 8.673516,
        "forecasts": {
            "today": {
                "temp": 293.5,
                "feeling": "very hot",
                "hazard": "very high",
                "color": "#800080"
            },
            "tomorrow": null,
            "day_after": null
        }
    },
    {
        "city": "Hiddenhausen",
        "lat": 52.166041,
        "lon": 8.616108,
        "forecasts": {
            "today": {
                "temp": 293.5,
                "feeling": "very hot",
                "hazard": "very high",
                "color": "#800080"
            },
            "tomorrow": null,
            "day_after": null
        }
    },
    {
        "city": "Kirchlengern",
        "lat": 52.198451,
        "lon": 8.642152,
        "forecasts": {
            "today": {
                "temp": 293.5,
                "feeling": "very hot",
                "hazard": "very high",
                "color": "#800080"
            },
            "tomorrow": null,
            "day_after": null
        }
    },
    {
        "city": "Löhne",
        "lat": 52.189912,
        "lon": 8.688425,
        "forecasts": {
            "today": {
                "temp": 293.2,
                "feeling": "very hot",
                "hazard": "very high",
                "color": "#800080"
            },
            "tomorrow": null,
            "day_after": null
        }
    },
    {
        "city": "Rödinghausen",
        "lat": 52.253282,
        "lon": 8.479015,
        "forecasts": {
            "today": {
                "temp": 293.7,
                "feeling": "very hot",
                "hazard": "very high",
                "color": "#800080"
            },
            "tomorrow": null,
            "day_after": null
        }
    },
    {
        "city": "Spenge",
        "lat": 52.139046,
        "lon": 8.48257,
        "forecasts": {
            "today": {
                "temp": 293.4,
                "feeling": "very hot",
                "hazard": "very high",
                "color": "#800080"
            },
            "tomorrow": null,
            "day_after": null
        }
    },
    {
        "city": "Vlotho",
        "lat": 52.165489,
        "lon": 8.860068,
        "forecasts": {
            "today": {
                "temp": 293.8,
                "feeling": "very hot",
                "hazard": "very high",
                "color": "#800080"
            },
            "tomorrow": null,
            "day_after": null
        }
    },
    {
        "city": "Bad Driburg",
        "lat": 51.736124,
        "lon": 9.017025,
        "forecasts": {
            "today": {
                "temp": 291.5,
                "feeling": "very hot",
                "hazard": "very high",
                "color": "#800080"
            },
            "tomorrow": null,
            "day_after": null
        }
    },
    {
        "city": "Beverungen",
        "lat": 51.662804,
        "lon": 9.372651,
        "forecasts": {
            "today": {
                "temp": 292.6,
                "feeling": "very hot",
                "hazard": "very high",
                "color": "#800080"
            },
            "tomorrow": null,
            "day_after": null
        }
    },
    {
        "city": "Borgentreich",
        "lat": 51.571529,
        "lon": 9.240386,
        "forecasts": {
            "today": {
                "temp": 293.7,
                "feeling": "very hot",
                "hazard": "very high",
                "color": "#800080"
            },
            "tomorrow": null,
            "day_after": null
        }
    },
    {
        "city": "Brakel",
        "lat": 51.716841,
        "lon": 9.184377,
        "forecasts": {
            "today": {
                "temp": 291.9,
                "feeling": "very hot",
                "hazard": "very high",
                "color": "#800080"
            },
            "tomorrow": null,
            "day_after": null
        }
    },
    {
        "city": "Höxter",
        "lat": 51.775666,
        "lon": 9.381623,
        "forecasts": {
            "today": {
                "temp": 291.9,
                "feeling": "very hot",
                "hazard": "very high",
                "color": "#800080"
            },
            "tomorrow": null,
            "day_after": null
        }
    },
    {
        "city": "Marienmünster",
        "lat": 51.81928,
        "lon": 9.229516,
        "forecasts": {
            "today": {
                "temp": 290.9,
                "feeling": "very hot",
                "hazard": "very high",
                "color": "#800080"
            },